[
  {
    "id": "a1b2c3d4-e5f6-4a7b-8c9d-0e1f2a3b4c5d",
    "name": "Eiffel Tower",
    "country": "France",
    "city": "Paris",
    "coordinates": {
      "lat": 48.8584,
      "long": 2.2945
    }
  },
  {
    "id": "b2c3d4e5-f6a7-4b8c-9d0e-1f2a3b4c5d6e",
    "name": "Sagrada Familia",
    "country": "Spain",
    "city": "Barcelona",
    "coordinates": {
      "lat": 41.4036,
      "long": 2.1744
    }
  },
  {
    "id": "c3d4e5f6-a7b8-4c9d-0e1f-2a3b4c5d6e7f",
    "name": "Colosseum",
    "country": "Italy",
    "city": "Rome",
    "coordinates": {
      "lat": 41.8902,
      "long": 12.4922
    }
  },
  {
    "id": "d4e5f6a7-b8c9-4d0e-1f2a-3b4c5d6e7f8a",
    "name": "Tokyo Tower",
    "country": "Japan",
    "city": "Tokyo",
    "coordinates": {
      "lat": 35.6586,
      "long": 139.7454
    }
  },
  {
    "id": "e5f6a7b8-c9d0-4e1f-2a3b-4c5d6e7f8a9b",
    "name": "Sydney Opera House",
    "country": "Australia",
    "city": "Sydney",
    "coordinates": {
      "lat": -33.8568,
      "long": 151.2153
    }
  },
  {
    "id": "f6a7b8c9-d0e1-4f2a-3b4c-5d6e7f8a9b0c",
    "name": "Christ the Redeemer",
    "country": "Brazil",
    "city": "Rio de Janeiro",
    "coordinates": {
      "lat": -22.9519,
      "long": -43.2105
    }
  },
  {
    "id": "a7b8c9d0-e1f2-4a3b-4c5d-6e7f8a9b0c1d",
    "name": "Burj Khalifa",
    "country": "United Arab Emirates",
    "city": "Dubai",
    "coordinates": {
      "lat": 25.1972,
      "long": 55.2744
    }
  },
  {
    "id": "b8c9d0e1-f2a3-4b4c-5d6e-7f8a9b0c1d2e",
    "name": "Machu Picchu",
    "country": "Peru",
    "city": "Cusco",
    "coordinates": {
      "lat": -13.1631,
      "long": -72.545
    }
  },
  {
    "id": "c9d0e1f2-a3b4-4c5d-6e7f-8a9b0c1d2e3f",
    "name": "Great Wall of China",
    "country": "China",
    "city": "Beijing",
    "coordinates": {
      "lat": 40.4319,
      "long": 116.5704
    }
  },
  {
    "id": "d0e1f2a3-b4c5-4d6e-7f8a-9b0c1d2e3f4a",
    "name": "Statue of Liberty",
    "country": "United States",
    "city": "New York",
    "coordinates": {
      "lat": 40.6892,
      "long": -74.0445
    }
  }
]